fullname,zip,street1,city,longitude,latitude,proc,diff,malp,pharmadollars,services_count,yelprating,yelpreviewcount,sentiment,yelp_stand,malp_word,services10,yelp10,diff10,pharma10,score
MARK BELTRAN,94010,1501 TROUSDALE DR,BURLINGAME,-122.38329,37.594425,Admin influenza virus vac,7.1987762,0,,43,,,,,no,5,0,3,0,8
ERIC G. LIM,94110,1580 VALENCIA ST,SAN FRANCISCO,-122.42031,37.747532,Admin influenza virus vac,.35017014,0,,328,,,,,no,10,0,5,0,15
ARSEEN E. SOLIMAN,94520,2700 GRANT ST,CONCORD,-122.03596,37.984161,Admin influenza virus vac,7.3501701,0,,168,,,,,no,9,0,3,0,12
NATASHA AHMED,95134,65 RIO ROBLES E UNIT 3117,SAN JOSE,-121.94039,37.406849,Admin influenza virus vac,.35017014,0,,53,1,1,.15800001,.012554109,no,6,1,5,0,12
KHALIQ A. SHAH,95050,1825 CIVIC CENTER DR,SANTA CLARA,-121.95731,37.355827,Admin influenza virus vac,-2.6498299,0,,13,,,,,no,1,0,6,0,7
NICOLAS E. MAKHOUL,94523,401 GREGORY LN,PLEASANT HILL,-122.07373,37.947945,Admin influenza virus vac,5.8731956,0,,94,,,,,no,7,0,3,0,10
SARAH N. TORRES,94301,795 EL CAMINO REAL,PALO ALTO,-122.16225,37.439377,Admin influenza virus vac,-13.126804,0,,18,,,,,no,2,0,9,0,11
MARIA ANDRAE-HAMMOND,94563,140 BROOKWOOD RD,ORINDA,-122.18171,37.877193,Admin influenza virus vac,7.3501701,0,,31,,,,,no,4,0,3,0,7
PATTI YANKLOWITZ,94301,795 EL CAMINO REAL,PALO ALTO,-122.16225,37.439377,Admin influenza virus vac,-11.64983,0,,60,,,,,no,6,0,9,0,15
RICHARD M. GERBER,94117,2250 HAYES ST,SAN FRANCISCO,-122.45348,37.773037,Admin influenza virus vac,10.35017,0,,76,,,,,no,7,0,2,0,9
WILLIAM S. ANDERECK,94115,2100 WEBSTER ST,SAN FRANCISCO,-122.4324,37.790154,Admin influenza virus vac,-10.58983,0,,49,,,,,no,6,0,8,0,14
ROBERT J. DEITZ,94123,2001 UNION ST,SAN FRANCISCO,-122.43255,37.797428,Admin influenza virus vac,5.7868652,0,,45,,,,,no,5,0,3,0,8
"GARFIELD BEACH CVS, L.L.C.",94901,909 GRAND AVE,SAN RAFAEL,-122.51881,37.971279,Admin influenza virus vac,-1.0816765,0,,185,,,,,no,9,0,6,0,15
LEO SIFFLET,95126,625 LINCOLN AVE,SAN JOSE,-121.90813,37.317707,Admin influenza virus vac,-23.449829,0,,30,,,,,no,4,0,10,0,14
LEAH TESSLER,94109,1199 BUSH ST,SAN FRANCISCO,-122.41667,37.789135,Admin influenza virus vac,8.3501701,0,,36,,,,,no,5,0,3,0,8
DAVID M. TULLY-SMITH,94901,711 D ST,SAN RAFAEL,-122.53244,37.970852,Admin influenza virus vac,-5.6048126,0,,24,,,,,no,3,0,7,0,10
STEPHEN M. KNOX,94114,45 CASTRO ST STE 325,SAN FRANCISCO,-122.43571,37.768429,Admin influenza virus vac,.46128082,0,,45,3.5,47,.12899999,1.3825823,no,5,9,5,0,19
LESLEY A. DEBRIER,94945,75 ROWLAND WAY,NOVATO,-122.55894,38.095032,Admin influenza virus vac,8.8731956,0,,13,,,,,no,1,0,3,0,4
ALVIN D. WONG,94118,3838 CALIFORNIA ST,SAN FRANCISCO,-122.45768,37.785908,Admin influenza virus vac,3.8747597,0,,61,,,,,no,6,0,4,0,10
PATRICK W. PAU,95116,200 JOSE FIGUERES AVE,SAN JOSE,-121.85059,37.361233,Admin influenza virus vac,10.645355,0,,21,,,,,no,3,0,2,0,5
MAURA DEVEREUX,94114,45 CASTRO ST STE 125,SAN FRANCISCO,-122.43571,37.768429,Admin influenza virus vac,-13.167397,0,,43,,,,,no,5,0,8,0,13
SHU WING CHAN,94108,929 CLAY STREET,SAN FRANCISCO,-122.40835,37.793976,Admin influenza virus vac,.35017014,0,,70,,,,,no,7,0,5,0,12
SUNG H. KNUEPPEL,94063,805 VETERANS BLVD,REDWOOD CITY,-122.22926,37.490795,Admin influenza virus vac,-13.126804,0,,20,,,,,no,3,0,9,0,12
ALPHAEUS M. WISE,94596,1150 CIVIC DR,WALNUT CREEK,-122.05918,37.905483,Admin influenza virus vac,-6.1268044,0,,29,,,,,no,4,0,7,0,11
JOHN C. GOOD,94609,3100 TELEGRAPH AVE,OAKLAND,-122.26685,37.820084,Admin influenza virus vac,-1.1268044,0,,140,,,,,no,8,0,5,0,13
DAVID L. GRIFFITH,95120,6475 CAMDEN AVE,SAN JOSE,-121.86433,37.220657,Admin influenza virus vac,-5.5752411,0,,32,,,,,no,4,0,7,0,11
MARY J. MARTIN,94118,3490 CALIFORNIA ST,SAN FRANCISCO,-122.45142,37.786728,Admin influenza virus vac,12.873196,0,,20,4,6,.154,.20171413,no,3,3,2,0,8
PATRICK J. KEARNS,94040,2660 GRANT RD,MOUNTAIN VIEW,-122.07791,37.366146,Admin influenza virus vac,26.410172,0,,22,,,,,no,3,0,1,0,4
MARCO PAVESI,94538,2557 MOWRY AVE,FREMONT,-121.98267,37.55579,Admin influenza virus vac,-2.7917709,0,,49,,,,,no,6,0,6,0,12
HANS YU,94122,1431 NORIEGA ST,SAN FRANCISCO,-122.47914,37.754097,Admin influenza virus vac,5.3501701,0,,292,,,,,no,9,0,3,0,12
PAUL KIM,94568,4050 DUBLIN BLVD,DUBLIN,-121.87423,37.705521,Admin influenza virus vac,-13.126804,0,,12,,,,,no,1,0,9,0,10
KATHERINE K. STRELKOFF,94132,1569 SLOAT BLVD,SAN FRANCISCO,-122.48966,37.73399,Admin influenza virus vac,12.873196,0,,89,,,,,no,7,0,2,0,9
DEVORAH E. BEN-ZEEV,94598,2255 YGNACIO VALLEY RD,WALNUT CREEK,-122.03021,37.922413,Admin influenza virus vac,7.3501701,0,,80,,,,,no,7,0,3,0,10
CHIU J. YUAN,95112,475 N 1ST ST,SAN JOSE,-121.89634,37.343765,Admin influenza virus vac,-.60481262,0,,85,,,,,no,7,0,5,0,12
KATHLEEN WISHART,94558,1141 PEAR TREE LN,NAPA,-122.29205,38.321327,Admin influenza virus vac,-18.988361,0,,13,,,,,no,1,0,9,0,10
ARTHUR POLUSSA,95032,812 POLLARD RD # 5,LOS GATOS,-121.97041,37.262268,Admin influenza virus vac,-6.1268044,0,,27,,,,,no,4,0,7,0,11
KAVERI PATEL,94538,3200 KEARNEY ST,FREMONT,-121.97461,37.549271,Admin influenza virus vac,-13.126804,0,,15,,,,,no,2,0,9,0,11
SUSAN C. GARAY,94025,1300 CRANE ST,MENLO PARK,-122.18795,37.452675,Admin influenza virus vac,-7.6498299,0,,23,,,,,no,3,0,7,0,10
RUBEN S. VELASQUEZ,94589,1460 N CAMINO ALTO,VALLEJO,-122.23869,38.132587,Admin influenza virus vac,-4.6498299,0,,47,,,,,no,6,0,6,0,12
BETSY STRONG,94086,301 OLD SAN FRANCISCO RD,SUNNYVALE,-122.02978,37.368004,Admin influenza virus vac,-11.64983,0,,52,,,,,no,6,0,9,0,15
DAVID COHEN,94109,909 HYDE ST STE 505,SAN FRANCISCO,-122.41714,37.789528,Admin influenza virus vac,.33652115,0,,74,,,,,no,7,0,5,0,12
JONATHAN NORDLICHT,94109,1375 SUTTER ST,SAN FRANCISCO,-122.42309,37.787361,Admin influenza virus vac,-5.6498299,0,,32,5,12,.221,.50428534,no,4,5,7,0,16
SANDRA WONG,94538,3200 KEARNEY ST,FREMONT,-121.97461,37.549271,Admin influenza virus vac,-13.126804,0,,18,,,,,no,2,0,9,0,11
ASHWANI K. BINDAL,94538,2147 MOWRY AVENUE,FREMONT,-121.98116,37.557617,Admin influenza virus vac,-1.4851456,0,,79,,,,,no,7,0,5,0,12
LAURA DALTON,94510,1440 MILITARY W,BENICIA,-122.18224,38.067806,Admin influenza virus vac,5.8731956,0,,17,,,,,no,2,0,3,0,5
CATHARINE T. CLARK-SAYLES,94904,1341 S ELISEO DR,GREENBRAE,-122.53705,37.944862,Admin influenza virus vac,10.35017,0,259,157,,,,,no,8,0,2,1,9
LINDA C. LU,95032,15215 NATIONAL AVE,LOS GATOS,-121.95024,37.247131,Admin influenza virus vac,1.3501701,0,,38,,,,,no,5,0,4,0,9
RONG SHEN,94133,728 PACIFIC AVE,SAN FRANCISCO,-122.40741,37.796867,Admin influenza virus vac,-1.1268044,0,,45,,,,,no,5,0,5,0,10
EVAN SEEVAK,94602,1411 EAST 31ST STREET,OAKLAND,-122.23111,37.799191,Admin influenza virus vac,14.994614,0,,45,,,,,no,5,0,2,0,7
SYDNEY C. CHOSLOVSKY,95112,65 N 14TH ST,SAN JOSE,-121.87793,37.343464,Admin influenza virus vac,-5.755949,0,,67,,,,,no,7,0,7,0,14
ANURADHA REDDY,94040,701 E EL CAMINO REAL,MOUNTAIN VIEW,-122.06483,37.377022,Admin influenza virus vac,-8.6776085,0,,18,,,,,no,2,0,8,0,10
JORGE V. CONTRERAS,95123,841 BLOSSOM HILL RD,SAN JOSE,-121.85539,37.25042,Admin influenza virus vac,-1.5236282,0,,63,3,7,.015,.26363635,no,6,3,5,0,14
THOMAS MCDONALD,94301,795 EL CAMINO REAL,PALO ALTO,-122.16225,37.439377,Admin influenza virus vac,-11.64983,0,,16,,,,,no,2,0,9,0,11
RACHEL M. SEAMAN,94025,1300 CRANE ST,MENLO PARK,-122.18795,37.452675,Admin influenza virus vac,-7.6498299,0,,52,,,,,no,6,0,7,0,13
HARVEY SACHS,95116,227 N JACKSON AVE,SAN JOSE,-121.84826,37.363342,Admin influenza virus vac,-23.449829,0,,21,,,,,no,3,0,10,0,13
LUCRETIA SONDERER,94558,1141 PEAR TREE LN,NAPA,-122.29205,38.321327,Admin influenza virus vac,-20.058416,0,,14,,,,,no,1,0,9,0,10
MARGARET KRAY,94601,2700 INTERNATIONAL BLVD STE 20,OAKLAND,-122.23122,37.780659,Admin influenza virus vac,-18.469131,0,,16,,,,,no,2,0,9,0,11
VIJAY THUKRAL,95035,995 MONTAGUE EXPY,MILPITAS,-121.88464,37.413212,Admin influenza virus vac,12.135883,0,,28,,,,,no,4,0,2,0,6
STEVE R. LANE,94301,795 EL CAMINO REAL,PALO ALTO,-122.16225,37.439377,Admin influenza virus vac,-13.126804,0,,28,,,,,no,4,0,9,0,13
SAYEMA A. SAIFULLAH,95051,2734 EL CAMINO REAL,SANTA CLARA,-121.9761,37.352268,Admin influenza virus vac,-13.126804,0,,12,,,,,no,1,0,9,0,10
MARY JANE HUTCHINS,95032,14911 NATIONAL AVE,LOS GATOS,-121.95152,37.251808,Admin influenza virus vac,-2.9831638,0,,15,,,,,no,2,0,6,0,8
LORI M. BELTRAN,94609,350 30TH STREET,OAKLAND,-122.26389,37.818897,Admin influenza virus vac,8.8731956,0,,22,,,,,no,3,0,3,0,6
TINA R. SINGH,94534,2720 LOW CT,FAIRFIELD,-122.08533,38.235332,Admin influenza virus vac,44.873196,0,,12,,,,,no,1,0,1,0,2
CHARLES J. ANTONINI,94015,1800 SULLIVAN AVE,DALY CITY,-122.47292,37.680737,Admin influenza virus vac,-9.6498299,0,340,94,,,,,no,7,0,8,4,11
AMY BRENDEL,94065,290 REDWOOD SHORES PKWY,REDWOOD CITY,-122.25239,37.524399,Admin influenza virus vac,-11.64983,0,,31,,,,,no,4,0,9,0,13
PAULINE SIAO,94065,290 REDWOOD SHORES PKWY,REDWOOD CITY,-122.25239,37.524399,Admin influenza virus vac,-13.126804,0,,13,,,,,no,1,0,9,0,10
SCOTT MATTHEWS,94301,795 EL CAMINO REAL,PALO ALTO,-122.16225,37.439377,Admin influenza virus vac,-11.64983,0,,47,,,,,no,6,0,9,0,15
GARY FUJIMOTO,94301,795 EL CAMINO REAL,PALO ALTO,-122.16225,37.439377,Admin influenza virus vac,0,0,,36,,,,,no,5,0,5,0,10
ROBINA Y. MOEN,94086,401 OLD SAN FRANCISCO RD,SUNNYVALE,-122.0287,37.367916,Admin influenza virus vac,-11.64983,0,,24,,,,,no,3,0,9,0,12
JUSTIN R. GLODOWSKI,95405,10 DOCTORS PARK DRIVE,SANTA ROSA,-122.69216,38.442863,Admin influenza virus vac,-6.0434704,0,,60,,,,,no,6,0,7,0,13
CHERYL GOLD,94301,795 EL CAMINO REAL,PALO ALTO,-122.16225,37.439377,Admin influenza virus vac,-11.64983,0,,39,,,,,no,5,0,9,0,14
MICHAEL SU,94086,401 OLD SAN FRANCISCO RD,SUNNYVALE,-122.0287,37.367916,Admin influenza virus vac,-11.64983,0,,23,,,,,no,3,0,9,0,12
PHUONG D. DANG,94606,145 INTERNATIONAL BLVD,OAKLAND,-122.25663,37.798168,Admin influenza virus vac,-6.2355003,0,,92,,,,,no,7,0,7,0,14
TINA W. LEUNG,94022,370 DISTEL CIR,LOS ALTOS,-122.10493,37.395618,Admin influenza virus vac,-13.126804,0,,11,,,,,no,1,0,9,0,10
SYLVIA H. HOANG,94538,2333 MOWRY AVE,FREMONT,-121.98233,37.556206,Admin influenza virus vac,-1.1268044,0,,19,,,,,no,3,0,5,0,8
CONSTANCE J. AYERS,95472,6800 PALM AVE,SEBASTOPOL,-122.81842,38.396046,Admin influenza virus vac,-11.126804,0,,36,,,,,no,5,0,8,0,13
CARLOS E. ANDERSEN,94519,3301 CLAYTON RD,CONCORD,-122.0179,37.972511,Admin influenza virus vac,-9.6498299,0,692,25,,,,,no,4,0,8,6,6
ERICA WEIRICH,94022,370 DISTEL CIR,LOS ALTOS,-122.10493,37.395618,Admin influenza virus vac,-13.126804,0,,17,,,,,no,2,0,9,0,11
LILLIAN LEONG,94598,1455 MONTEGO,WALNUT CREEK,-122.04186,37.910461,Admin influenza virus vac,5.8731956,0,,14,,,,,no,1,0,3,0,4
XIAOGUANG HUANG,94607,345 9TH ST,OAKLAND,-122.27065,37.799805,Admin influenza virus vac,-4.6498299,0,1010,538,,,,,no,10,0,6,7,9
NELSON BUNIN,94706,1181 SOLANO AVE,ALBANY,-122.29665,37.89043,Admin influenza virus vac,-9.0498295,0,,25,,,,,no,4,0,8,0,12
RALEY'S PHARMACY,94954,157 N MCDOWELL BLVD,PETALUMA,-122.62778,38.250198,Admin influenza virus vac,1.5739422,0,,53,,,,,no,6,0,4,0,10
SHEILA H. HUMPHRIES,94024,811 ALTOS OAKS DRIVE,LOS ALTOS,-122.09234,37.359344,Admin influenza virus vac,-4.1198292,0,,57,,,,,no,6,0,6,0,12
VIKTOR NOVIKOV,94526,319 DIABLO RD,DANVILLE,-121.99686,37.822865,Admin influenza virus vac,-9.1268044,0,,13,,,,,no,1,0,8,0,9
JAMES F. LEONI,94954,104 LYNCH CREEK WAY,PETALUMA,-122.63398,38.25211,Admin influenza virus vac,-6.1807613,0,,278,,,,,no,9,0,7,0,16
DAPHNE MILLER,94131,1448 CHURCH ST,SAN FRANCISCO,-122.42709,37.747799,Admin influenza virus vac,-11.206804,0,,11,4.5,10,.163,.378214,no,1,4,8,0,13
FUSHENG WANG,94133,890 JACKSON ST,SAN FRANCISCO,-122.40965,37.795681,Admin influenza virus vac,15.35017,0,,12,,,,,no,1,0,2,0,3
JOSHUA RASSEN,94121,700 25TH AVE,SAN FRANCISCO,-122.48442,37.776119,Admin influenza virus vac,-1.1649818,0,,33,,,,,no,5,0,5,0,10
JEFF TAO,95051,2734 EL CAMINO REAL,SANTA CLARA,-121.9761,37.352268,Admin influenza virus vac,-11.64983,0,,74,,,,,no,7,0,9,0,16
SUE J. KNIGHT,94583,200 PORTER DR,SAN RAMON,-121.99117,37.773804,Admin influenza virus vac,-5.1445675,0,,95,,,,,no,7,0,7,0,14
KIMBERELY CARLSON,94040,701 E EL CAMINO REAL,MOUNTAIN VIEW,-122.06483,37.377022,Admin influenza virus vac,-11.64983,0,,25,,,,,no,4,0,9,0,13
MARLON DECASTRO,95405,500 DOYLE PARK DR,SANTA ROSA,-122.69884,38.443104,Admin influenza virus vac,-9.6498299,0,,81,,,,,no,7,0,8,0,15
ERNEST L. BONNER,94501,1406 PARK ST,ALAMEDA,-122.24256,37.764458,Admin influenza virus vac,-14.64983,0,,72,,,,,no,7,0,9,0,16
LOUIS J. CUBBA,94114,45 CASTRO ST,SAN FRANCISCO,-122.43571,37.768429,Admin influenza virus vac,-.64982986,0,,57,4.5,25,.241,.94553494,no,6,7,5,0,18
KATHLEEN L. HORAN,95405,510 DOYLE PARK DR,SANTA ROSA,-122.69859,38.442539,Admin influenza virus vac,15.873196,-10,,23,,,,,yes,3,0,2,0,-5
LYNDA A. MACKIN,94002,1301 SHOREWAY RD,BELMONT,-122.26675,37.523884,Admin influenza virus vac,9.5933685,0,,16,,,,,no,2,0,3,0,5
SAFEWAY INC,94941,1 CAMINO ALTO,MILL VALLEY,-122.53013,37.893986,Admin influenza virus vac,5.5043526,0,,618,,,,,no,10,0,2,0,12
RICHARD E. BATTS,94564,2160 APPIAN WAY,PINOLE,-122.30174,37.99675,Admin influenza virus vac,-7.4623299,0,,64,,,,,no,6,0,7,0,13
MING-HSIEN WU,94538,3200 KEARNEY ST,FREMONT,-121.97461,37.549271,Admin influenza virus vac,-13.126804,0,,24,,,,,no,3,0,9,0,12
ZHI H. HUANG,94607,818 WEBSTER ST,OAKLAND,-122.27118,37.799496,Admin influenza virus vac,27.101768,0,,70,,,,,no,7,0,1,0,8
ELIZABETH K. ZIEMANN,94103,350 RHODE ISLAND ST,SAN FRANCISCO,-122.40271,37.76548,Admin influenza virus vac,-7.1268044,0,,31,,,,,no,4,0,7,0,11
STEPHEN E. PRATT,94582,11030 BOLLINGER CANYON RD,SAN RAMON,-121.92371,37.773804,Admin influenza virus vac,-9.6498299,0,,32,,,,,no,4,0,8,0,12
KENNETH B. MAYBURY,94117,1 SHRADER ST,SAN FRANCISCO,-122.45302,37.774872,Admin influenza virus vac,-9.6498299,0,,59,,,,,no,6,0,8,0,14
MILDRED M. KAWACHI,94704,2006 DWIGHT WAY,BERKELEY,-122.26942,37.863678,Admin influenza virus vac,-20.755093,0,,57,,,,,no,6,0,10,0,16
ROBERT J. BARTZ,94965,3 HARBOR DRIVE,SAUSALITO,-122.49979,37.867756,Admin influenza virus vac,7.5022278,0,,62,,,,,no,6,0,3,0,9
BUDD N. SHENKIN,94609,3100 TELEGRAPH AVE,OAKLAND,-122.26685,37.820084,Admin influenza virus vac,0,0,2665,13,,,,,no,1,0,5,8,-2
RALEYS,94509,3632 LONE TREE WAY,ANTIOCH,-121.8063,37.986614,Admin influenza virus vac,-1.2768116,0,,28,,,,,no,4,0,6,0,10
MICHELLE E. GUY,94115,1701 DIVISADERO ST,SAN FRANCISCO,-122.43997,37.785328,Admin influenza virus vac,14.35017,0,,17,,,,,no,2,0,2,0,4
ANJALI CHANANA,94534,4820 BUSINESS CENTER DR,FAIRFIELD,-122.13847,38.220676,Admin influenza virus vac,-8.6498299,0,,15,,,,,no,2,0,8,0,10
TUONG D. DO,94121,2089 CLEMENT STREET,SAN FRANCISCO,-122.4815,37.782135,Admin influenza virus vac,-11.126804,0,,25,,,,,no,4,0,8,0,12
JEANETTE M. WILLIAMS,94515,913 WASHINGTON ST,CALISTOGA,-122.57719,38.578106,Admin influenza virus vac,18.330036,0,,38,,,,,no,5,0,2,0,7
LAKSHMI MYNENI,94040,2500 HOSPITAL DR,MOUNTAIN VIEW,-122.08175,37.369045,Admin influenza virus vac,4.4969788,0,,25,,,,,no,4,0,3,0,7
JAMES TAYLOR,94901,1155 ANDERSEN DR,SAN RAFAEL,-122.50098,37.953224,Admin influenza virus vac,-6.8698292,0,,117,,,,,no,8,0,7,0,15
HARVEY C. EDELMAN,94102,490 POST ST STE 1210,SAN FRANCISCO,-122.40968,37.788162,Admin influenza virus vac,-24.64983,0,,49,5,10,.227,.42023778,no,6,5,10,0,21
DAVID M. WOODHOUSE,95688,770 MASON ST,VACAVILLE,-121.9838,38.354992,Admin influenza virus vac,46.35017,0,1018,175,,,,,no,9,0,1,7,3
TERESA CHENG,94086,401 OLD SAN FRANCISCO RD,SUNNYVALE,-122.0287,37.367916,Admin influenza virus vac,-11.64983,0,,33,,,,,no,5,0,9,0,14
DHANU KAPOOR,95050,1150 SCOTT BLVD STE B1,SANTA CLARA,-121.95944,37.347054,Admin influenza virus vac,-6.1268044,0,,14,,,,,no,1,0,7,0,8
PAUL JEMELIAN,94401,50 S SAN MATEO DR,SAN MATEO,-122.32603,37.566257,Admin influenza virus vac,-9.6498299,0,,20,,,,,no,3,0,8,0,11
SEYMOUR GREENSTEIN,94523,380 CIVIC DR,PLEASANT HILL,-122.07244,37.962196,Admin influenza virus vac,5.8731956,0,269,88,,,,,no,7,0,3,2,8
LISA A. BOWIE,95126,1691 THE ALAMEDA,SAN JOSE,-121.91915,37.337349,Admin influenza virus vac,-7.1268044,0,,12,,,,,no,1,0,7,0,8
CHUNG-YING A. CHEN,94086,401 OLD SAN FRANCISCO RD,SUNNYVALE,-122.0287,37.367916,Admin influenza virus vac,-11.64983,0,,19,,,,,no,3,0,9,0,12
RATNASOTHY S. RAJAH,94578,13847 E 14TH ST,SAN LEANDRO,-122.14181,37.714478,Admin influenza virus vac,1.8405838,0,,68,,,,,no,7,0,4,0,11
JONATHAN L. BARASH,94134,1525 SILVER AVE,SAN FRANCISCO,-122.4062,37.732288,Admin influenza virus vac,27.539864,0,,18,,,,,no,2,0,1,0,3
SIMIN SIDDIQ,94538,2333 MOWRY AVE,FREMONT,-121.98233,37.556206,Admin influenza virus vac,-.80367661,0,,26,,,,,no,4,0,5,0,9
SHELDON ZITMAN,95014,20555 PROSPECT ROAD,CUPERTINO,-122.033,37.293945,Admin influenza virus vac,-6.1268044,0,365,18,,,,,no,2,0,7,4,5
JAMES A. DAVIS,94115,2340 CLAY ST FL 6,SAN FRANCISCO,-122.43176,37.791096,Admin influenza virus vac,2.9001694,0,,100,,,,,no,8,0,4,0,12
ABRAHAM C. CABEBE,95123,5440 THORNWOOD DR,SAN JOSE,-121.86076,37.253387,Admin influenza virus vac,-9.1612873,0,,87,,,,,no,7,0,8,0,15
GAYATRI KHANNA,94109,1700 CALIFORNIA ST,SAN FRANCISCO,-122.42287,37.790363,Admin influenza virus vac,-8.3998299,0,,24,,,,,no,3,0,8,0,11
TRACY A. THOMPSON,94568,4050 DUBLIN BLVD.,DUBLIN,-121.87423,37.705521,Admin influenza virus vac,-11.64983,0,,57,,,,,no,6,0,9,0,15
GAIL PYLE,94301,795 EL CAMINO REAL,PALO ALTO,-122.16225,37.439377,Admin influenza virus vac,-11.64983,0,,23,,,,,no,3,0,9,0,12
FREDERICK J. HASS,94903,750 LAS GALLINAS AVE,SAN RAFAEL,-122.54641,38.006828,Admin influenza virus vac,-5.6048126,0,,39,,,,,no,5,0,7,0,12
LISA HLADIK,94010,1501 TROUSDALE DR,BURLINGAME,-122.38329,37.594425,Admin influenza virus vac,-11.64983,0,,25,,,,,no,4,0,9,0,13
RICHARD HO,94546,19830 LAKE CHABOT RD,CASTRO VALLEY,-122.08777,37.700119,Admin influenza virus vac,-7.6498299,0,,45,,,,,no,5,0,7,0,12
NOB HILL GENERAL STORE INC,95123,6061 SNELL AVE,SAN JOSE,-121.83072,37.237846,Admin influenza virus vac,-1.1945896,0,,18,,,,,no,2,0,6,0,8
BEATTY H. RAMSAY,94401,50 S SAN MATEO DR,SAN MATEO,-122.32603,37.566257,Admin influenza virus vac,-8.5134659,0,,77,,,,,no,7,0,8,0,15
MICHAEL D. HOLMES,95472,511 PETALUMA AVE,SEBASTOPOL,-122.82108,38.39817,Admin influenza virus vac,-26.018108,0,,46,,,,,no,6,0,10,0,16
RAJESH K. RANADIVE,94954,141 LYNCH CREEK WAY STE C,PETALUMA,-122.63415,38.251904,Admin influenza virus vac,-9.6498299,0,,232,,,,,no,9,0,8,0,17
VIVEK JAIN,95051,2734 EL CAMINO REAL,SANTA CLARA,-121.9761,37.352268,Admin influenza virus vac,-11.64983,0,,13,,,,,no,1,0,9,0,10
LINDA H. FRESCO,94025,1300 CRANE ST,MENLO PARK,-122.18795,37.452675,Admin influenza virus vac,-7.6498299,0,,31,,,,,no,4,0,7,0,11
MICHAEL D. BOYD,94553,2500 ALHAMBRA AVE,MARTINEZ,-122.13095,38.006329,Admin influenza virus vac,-10.126804,0,,80,,,,,no,7,0,8,0,15
MARA ADELMAN,94558,1141 PEAR TREE LANE,NAPA,-122.29205,38.321327,Admin influenza virus vac,-15.281033,0,,11,,,,,no,1,0,9,0,10
KUTTANCHERI REMA,94538,3200 KEARNEY ST,FREMONT,-121.97461,37.549271,Admin influenza virus vac,-13.126804,0,,17,,,,,no,2,0,9,0,11
MICHAEL D. DELANGE,94541,22298 MAIN ST,HAYWARD,-122.08534,37.675762,Admin influenza virus vac,-18.939304,0,,64,,,,,no,6,0,10,0,16
MIDORI NISHIMURA,94040,1704 MIRAMONTE AVE,MOUNTAIN VIEW,-122.08709,37.373798,Admin influenza virus vac,-1.597393,0,,17,,,,,no,2,0,5,0,7
JOCELIZA G. CHAUDHARY,95124,2460 SAMARITAN DR,SAN JOSE,-121.94845,37.251076,Admin influenza virus vac,8.8731956,0,391,38,,,,,no,5,0,3,4,4
GARFIELD BEACH CVS LLC,95134,4110 N 1ST ST,SAN JOSE,-121.95397,37.415257,Admin influenza virus vac,-.75847816,0,,12,,,,,no,1,0,5,0,6
JOLINE HEO,94513,1120 2ND ST,BRENTWOOD,-121.69769,37.937107,Admin influenza virus vac,44.35017,0,,25,,,,,no,4,0,1,0,5
CATHERINE BAKER,94301,795 EL CAMINO REAL,PALO ALTO,-122.16225,37.439377,Admin influenza virus vac,-13.126804,0,,16,,,,,no,2,0,9,0,11
LEIGH S. KIMBERG,94115,1301 PIERCE ST,SAN FRANCISCO,-122.43592,37.78231,Admin influenza virus vac,28.450169,0,,20,,,,,no,3,0,1,0,4
RAMIRO ZARATE,94558,1141 PEAR TREE LN,NAPA,-122.29205,38.321327,Admin influenza virus vac,-18.719131,0,,11,,,,,no,1,0,9,0,10
GREGORY F. HOOPER,94087,500 E REMINGTON DR,SUNNYVALE,-122.02795,37.358974,Admin influenza virus vac,-1.2873573,-10,,16,,,,,yes,2,0,5,0,-3
MEGAN L. ANCKER,94404,"1241 E. HILLSDALE BLVD., 2ND FLOOR",FOSTER CITY,-122.26718,37.567696,Admin influenza virus vac,-1.2784538,0,,400,,,,,no,10,0,5,0,15
THOMAS E. STILES,94574,1530 RAILROAD AVE,SAINT HELENA,-122.47116,38.507099,Admin influenza virus vac,16.250172,0,,14,,,,,no,1,0,2,0,3
IRWIN SHELUB,94015,901 CAMPUS DR,DALY CITY,-122.47624,37.665237,Admin influenza virus vac,-.48407745,0,,13,,,,,no,1,0,5,0,6
NATHANIEL W. GLEASON,94115,1701 DIVISADERO ST,SAN FRANCISCO,-122.43997,37.785328,Admin influenza virus vac,14.35017,0,,12,,,,,no,1,0,2,0,3
MICHAEL J. MULLIGAN,94040,701 E EL CAMINO REAL,MOUNTAIN VIEW,-122.06483,37.377022,Admin influenza virus vac,-6.8353577,0,,14,,,,,no,1,0,8,0,9
FAITH WELLS,94022,370 DISTEL CIR,LOS ALTOS,-122.10493,37.395618,Admin influenza virus vac,-12.604813,0,,69,,,,,no,7,0,9,0,16
BARBARA H. KOSTICK,94536,38069 MARTHA AVE,FREMONT,-121.99204,37.560158,Admin influenza virus vac,-6.1268044,0,,39,,,,,no,5,0,7,0,12
JULIA S. HOHMAN,94596,1150 CIVIC DR,WALNUT CREEK,-122.05918,37.905483,Admin influenza virus vac,-6.1268044,0,,37,,,,,no,5,0,7,0,12
LARRY SLATER,95405,510 DOYLE PARK DR,SANTA ROSA,-122.69859,38.442539,Admin influenza virus vac,15.873196,0,,26,,,,,no,4,0,2,0,6
DAVID W. MCCULLOUGH,95120,6475 CAMDEN AVE,SAN JOSE,-121.86433,37.220657,Admin influenza virus vac,-5.6827126,0,,22,,,,,no,3,0,7,0,10
JACKIE A. BOLDS,94560,6066 CIVIC TERRACE AVE,NEWARK,-122.0282,37.536594,Admin influenza virus vac,12.88863,0,,13,,,,,no,1,0,2,0,3
KEVIN M. WONG,94015,1500 SOUTHGATE AVE,DALY CITY,-122.47508,37.675583,Admin influenza virus vac,.35017014,-10,,65,,,,,yes,6,0,5,0,1
CAROL L. LAMB,94506,4165 BLACKHAWK PLAZA CIR,DANVILLE,-121.91675,37.799988,Admin influenza virus vac,7.0245895,0,,43,,,,,no,5,0,3,0,8
NIRMALA KANNAN,94545,1090 LA PLAYA DR,HAYWARD,-122.10556,37.647842,Admin influenza virus vac,6.7934685,0,,97,,,,,no,7,0,3,0,10
