fullname,zip,street1,city,longitude,latitude,proc,diff,malp,pharmadollars,services_count,yelprating,yelpreviewcount,sentiment,yelp_stand,malp_word,services10,yelp10,diff10,pharma10,score
SCOTT L. BOOTH,95405,121 SOTOYOME ST,SANTA ROSA,-122.70145,38.442211,X-ray exam of shoulder,-32.385918,0,,39,,,,,no,5,0,10,0,15
THOMAS I. EFIRD,94598,175 LENNON LN,WALNUT CREEK,-122.02732,37.924805,X-ray exam of shoulder,-43.650284,0,,87,,,,,no,7,0,10,0,17
ROBERT BUCKLEY,94598,2405 SHADELANDS DR,WALNUT CREEK,-122.02595,37.926155,X-ray exam of shoulder,-16.236603,0,,62,,,,,no,6,0,7,0,13
HOWARD A. CARPENTER,94115,2333 BUCHANAN ST,SAN FRANCISCO,-122.43099,37.791183,X-ray exam of shoulder,0,0,,24,,,,,no,3,0,5,0,8
KARI D. ROBERTSON,94538,39500 FREMONT BLVD STE 100,FREMONT,-121.98042,37.544956,X-ray exam of shoulder,-38.544041,0,,32,,,,,no,4,0,10,0,14
DAVID KRAMER,95128,3031 TISCH WAY,SAN JOSE,-121.9475,37.317173,X-ray exam of shoulder,62.614082,0,,56,,,,,no,6,0,1,0,7
ELIZABETH SCHNEIDER,94040,2500 GRANT RD,MOUNTAIN VIEW,-122.07795,37.369011,X-ray exam of shoulder,62.614082,0,,33,,,,,no,5,0,1,0,6
MICHAEL J. STAR,95405,1405 MONTGOMERY DR,SANTA ROSA,-122.69875,38.443611,X-ray exam of shoulder,-4.0699387,0,,36,,,,,no,5,0,5,0,10
MICHAEL F. SACCO,94520,1800 SUTTER ST,CONCORD,-122.03784,37.973591,X-ray exam of shoulder,59.263397,0,,53,,,,,no,6,0,1,0,7
ALBERTO A. BOLANOS,94401,100 S SAN MATEO DR,SAN MATEO,-122.32568,37.565918,X-ray exam of shoulder,-86.492889,0,,35,,,,,no,5,0,10,0,15
PHILIP KURZMAN,94904,250 BON AIR RD,GREENBRAE,-122.5358,37.948872,X-ray exam of shoulder,-6.0015259,0,,41,,,,,no,5,0,6,0,11
DANIEL J. KANADA,94117,1738 HAIGHT ST APT 310,SAN FRANCISCO,-122.45087,37.769516,X-ray exam of shoulder,-3.3859177,0,,72,,,,,no,7,0,6,0,13
MICHAEL B. KRINSKY,94546,20990 REDWOOD RD,CASTRO VALLEY,-122.07371,37.693737,X-ray exam of shoulder,-60.746601,0,,17,,,,,no,2,0,10,0,12
DONNA HOGHOOGHI,94904,250 BON AIR RD,GREENBRAE,-122.5358,37.948872,X-ray exam of shoulder,-5.3859177,0,,32,,,,,no,4,0,6,0,10
SHANNON D. CRAWFORD,95124,2410 SAMARITAN DR,SAN JOSE,-121.9453,37.251076,X-ray exam of shoulder,-11.671631,0,,14,,,,,no,1,0,7,0,8
LEE A. SHRATTER,94589,300 HOSPITAL DR,VALLEJO,-122.23731,38.130699,X-ray exam of shoulder,-20.847458,0,,26,,,,,no,4,0,9,0,13
TEGINDER S. DHANOA,94538,3555 BEACON AVE,FREMONT,-121.98155,37.549313,X-ray exam of shoulder,11.25,0,,27,,,,,no,4,0,3,0,7
JOSEPH V. MERSOL,94609,411 30TH ST,OAKLAND,-122.26492,37.819,X-ray exam of shoulder,-21.385918,0,,85,,,,,no,7,0,9,0,16
MICHAEL S. WALL,94063,500 ARGUELLO ST,REDWOOD CITY,-122.23359,37.487427,X-ray exam of shoulder,47.763397,0,,20,,,,,no,3,0,2,0,5
JERRALD R. GOLDMAN,94583,5801 NORRIS CANYON RD,SAN RAMON,-121.95885,37.775478,X-ray exam of shoulder,3.8733978,0,,11,,,,,no,1,0,4,0,5
FREDERICK S. BENNETT,95405,1405 MONTGOMERY DR,SANTA ROSA,-122.69875,38.443611,X-ray exam of shoulder,-4.2366028,0,,30,,,,,no,4,0,5,0,9
ROBERT J. FEIWELL,95405,121 SOTOYOME ST,SANTA ROSA,-122.70145,38.442211,X-ray exam of shoulder,-32.385918,0,,46,,,,,no,6,0,10,0,16
EUGENE M. WOLF,94115,3000 CALIFORNIA ST,SAN FRANCISCO,-122.44376,37.787674,X-ray exam of shoulder,-8.2366028,0,,122,,,,,no,8,0,6,0,14
DARYL H. CHINN,95476,347 ANDRIEUX ST,SONOMA,-122.46525,38.288475,X-ray exam of shoulder,-5.3859177,0,,37,,,,,no,5,0,6,0,11
